city,lat,long,maxtemp,humidity,cloudiness,windspeed,date
Busselton,-33.65,115.3333,51.89,78,91,3.0,1659702664
Yerbogachën,61.2767,108.0108,54.34,77,100,5.35,1659702665
Hithadhoo,-0.6,73.0833,82.06,72,100,10.96,1659702643
Sistranda,63.7256,8.834,60.76,70,4,21.16,1659702665
Cairns,-16.9167,145.7667,73.35,88,100,0.0,1659702648
Shingū,33.7333,135.9833,77.68,91,0,4.65,1659702665
Kapaa,22.0752,-159.319,77.32,91,0,9.22,1659702416
Dikson,73.5069,80.5464,43.77,97,100,13.18,1659702666
Pacific Grove,36.6177,-121.9166,63.43,87,100,7.0,1659702666
Poum,-20.2333,164.0167,75.18,82,7,6.58,1659702667
Omīdīyeh,30.7597,49.705,114.67,21,0,18.41,1659702667
Horsham,51.064,-0.3272,74.32,35,0,8.05,1659702433
Mataura,-46.1927,168.8643,46.65,96,100,3.51,1659702668
Batemans Bay,-35.7167,150.1833,54.18,52,0,5.77,1659702668
Jamestown,42.097,-79.2353,73.51,73,20,4.61,1659702668
Albany,42.6001,-73.9662,74.17,94,100,1.68,1659702642
Farnes,61.3167,7.8,56.8,47,96,6.04,1659702669
Lira,2.235,32.9097,77.38,60,98,2.17,1659702669
Hilo,19.7297,-155.09,76.28,84,100,4.61,1659702669
Lebu,-37.6167,-73.65,50.83,96,100,6.8,1659702670
Hobyo,5.3505,48.5268,80.15,67,100,32.21,1659702670
Souillac,-20.5167,57.5167,75.58,60,40,16.11,1659702670
Atuona,-9.8,-139.0333,77.07,67,75,17.78,1659702671
Valparaíso,-33.0393,-71.6273,42.44,87,0,4.61,1659702671
Rikitea,-23.1203,-134.9692,71.4,63,99,19.24,1659702671
Hobart,-42.8794,147.3294,48.06,85,40,2.3,1659702400
Bengkulu,-3.8004,102.2655,78.66,78,70,4.21,1659702518
Bredasdorp,-34.5322,20.0403,63.68,58,93,19.53,1659702672
Sechura,-5.5569,-80.8222,62.71,83,94,12.26,1659702672
Cape Town,-33.9258,18.4232,63.12,72,20,12.66,1659702611
Chokurdakh,70.6333,147.9167,43.3,80,35,7.11,1659702673
Conceição do Araguaia,-8.2578,-49.2647,90.81,38,33,8.81,1659702634
Saint-Philippe,-21.3585,55.7679,76.59,73,46,12.28,1659702673
Vestmannaeyjar,63.4427,-20.2734,52.79,82,40,10.36,1659702673
Vilyuysk,63.7553,121.6247,62.92,99,100,5.93,1659702674
Khatanga,71.9667,102.5,64.67,52,0,5.88,1659702674
Kiryat Gat,31.61,34.7642,96.4,100,0,12.59,1659702471
Nouadhibou,20.931,-17.0347,76.98,73,40,10.36,1659702675
Madawaska,47.3561,-68.3288,68.09,84,100,10.36,1659702675
Belmonte,-15.8631,-38.8828,78.3,66,42,7.4,1659702675
Ushuaia,-54.8,-68.3,38.86,87,75,16.11,1659702676
Demba,-5.51,22.2667,98.26,13,95,4.16,1659702676
Arraial do Cabo,-22.9661,-42.0278,80.56,54,0,5.75,1659702563
Punta Arenas,-53.15,-70.9167,37.42,87,75,5.75,1659702677
Butaritari,3.0707,172.7902,81.77,76,9,11.79,1659702391
High Rock,26.6208,-78.2833,82.42,70,12,14.07,1659702677
Darnah,32.767,22.6367,83.84,60,0,20.96,1659702677
Saint Paul Harbor,57.79,-152.4072,54.91,94,100,0.0,1659702678
Hermanus,-34.4187,19.2345,63.81,74,41,16.73,1659702678
George Town,5.4112,100.3354,85.95,79,20,3.44,1659702613
Pevek,69.7008,170.3133,35.67,97,100,8.81,1659702683
Gra Lygia,35.0167,25.6833,85.44,53,0,3.04,1659702684
São João da Barra,-21.6403,-41.0511,77.09,52,3,10.74,1659702684
Kaitangata,-46.2817,169.8464,52.88,76,100,8.1,1659702684
Dunedin,-45.8742,170.5036,53.35,76,100,3.67,1659702685
Vaini,-21.2,-175.2,75.36,94,100,3.44,1659702685
Vila Velha,-20.3297,-40.2925,78.75,68,0,9.22,1659702512
Tiksi,71.6872,128.8694,43.36,93,99,2.51,1659702398
Trincomalee,8.5711,81.2335,84.33,66,97,21.85,1659702510
Isangel,-19.55,169.2667,77.11,83,20,4.61,1659702686
Ilo,-17.6394,-71.3375,60.22,79,96,4.7,1659702686
Ugoofaaru,5.6667,73.0,81.09,82,100,17.92,1659702686
Snezhnogorsk,69.1933,33.2531,71.38,68,100,12.46,1659702687
Provideniya,64.3833,-173.3,48.61,96,100,6.64,1659702687
Zeerust,-25.5369,26.0751,76.15,11,1,6.4,1659702687
Nago,26.5881,127.9761,85.05,83,70,2.77,1659702688
New Norfolk,-42.7826,147.0587,47.71,70,100,3.22,1659702688
Tsimmerbude,54.675,20.1347,86.05,32,87,12.46,1659702688
Mangan,27.5167,88.5333,78.44,98,100,0.81,1659702689
Bilibino,68.0546,166.4372,41.52,83,92,5.68,1659702689
Mahébourg,-20.4081,57.7,75.49,60,40,16.11,1659702689
Teya,60.3778,92.6267,51.4,78,82,2.73,1659702690
Port-Gentil,-0.7193,8.7815,80.56,65,20,13.8,1659702690
Puerto Ayora,-0.7393,-90.3518,68.56,93,20,5.01,1659702690
Hong Kong,22.2855,114.1577,80.94,93,98,11.01,1659702553
Siderno,38.2779,16.302,87.33,50,37,5.66,1659702691
Kampong Thom,12.7111,104.8887,79.34,82,100,2.28,1659702691
Iqaluit,63.7506,-68.5145,37.13,93,100,11.5,1659702534
Nehe,48.4833,124.8333,70.23,72,0,9.84,1659702691
Avarua,-21.2078,-159.775,73.45,78,75,10.36,1659702692
Geraldton,-28.7667,114.6,50.41,87,22,4.61,1659702679
Beira,-19.8436,34.8389,78.89,69,20,12.66,1659702692
Port Hardy,50.6996,-127.4199,53.6,93,20,4.61,1659702585
Mareeba,-17.0,145.4333,68.72,95,44,2.8,1659702429
Santa Cruz de la Sierra,-17.8,-63.1667,67.46,63,75,14.97,1659702489
Severo-Kuril'sk,50.6789,156.125,53.42,89,100,7.47,1659702682
Bantou,26.2151,117.4893,81.9,73,7,3.18,1659702693
Gao,16.6362,1.637,93.65,34,10,6.35,1659702693
Ferrol,43.4832,-8.2369,73.72,77,100,18.57,1659702693
Qaanaaq,77.484,-69.3632,41.63,59,5,3.47,1659702694
Thompson,55.7435,-97.8558,55.56,94,100,9.22,1659702540
Mezen',65.8522,44.24,79.11,50,94,11.27,1659702694
Mondolfo,43.7494,13.0979,91.81,63,0,5.01,1659702695
Sur,22.5667,59.5289,87.03,65,50,7.0,1659702695
Hemsedal,60.8629,8.5534,58.57,40,100,6.76,1659702695
Carnarvon,-24.8667,113.6333,64.89,55,0,15.66,1659702696
Yellowknife,62.456,-114.3525,52.32,93,20,8.05,1659702622
Vrangel',42.7297,133.0839,71.87,94,100,8.1,1659702696
Port Alfred,-33.5906,26.891,68.18,70,1,11.12,1659702696
Saint Anthony,45.0205,-93.218,70.95,79,0,11.5,1659702702
Upernavik,72.7868,-56.1549,42.82,92,100,3.91,1659702702
Airai,-8.9266,125.4092,58.82,95,100,2.89,1659702702
Adré,13.4667,22.2,90.27,38,68,7.58,1659702703
Kumul,42.8,93.45,90.48,27,7,15.23,1659702703
Nikolskoye,59.7035,30.7861,84.87,32,11,8.88,1659702703
Hokitika,-42.7167,170.9667,55.38,97,100,19.57,1659702704
Vostok,46.4856,135.8833,64.9,99,100,5.03,1659702660
East London,-33.0153,27.9116,68.94,68,0,6.91,1659702704
Borogontsy,62.6683,131.1683,70.68,64,100,10.25,1659702704
Saint George,37.1041,-113.5841,78.64,75,75,4.0,1659702684
Iralaya,15.0,-83.2333,76.98,82,100,10.83,1659702705
Camacha,33.0833,-16.3333,72.82,69,75,11.5,1659702705
Xixiang,35.1628,112.865,89.87,59,31,3.49,1659702706
Bathsheba,13.2167,-59.5167,81.05,93,75,19.57,1659702706
Kati,12.7441,-8.0726,81.81,61,100,4.41,1659702706
Napāsar,27.9667,73.55,80.56,87,100,8.63,1659702706
Gambēla,8.25,34.5833,82.96,68,36,4.94,1659702707
Tuktoyaktuk,69.4541,-133.0374,55.6,65,13,13.73,1659702707
Phalaborwa,-23.943,31.1411,86.16,25,0,5.23,1659702708
Te Anau,-45.4167,167.7167,48.87,94,100,4.74,1659702708
Portland,45.5234,-122.6762,59.04,86,20,5.75,1659702461
Mar del Plata,-38.0023,-57.5575,42.1,96,75,10.36,1659702708
Kieta,-6.2167,155.6333,78.98,83,78,4.63,1659702709
Amahai,-3.3333,128.9167,77.85,88,94,1.14,1659702709
Tasiilaq,65.6145,-37.6368,46.56,76,11,4.21,1659702709
Ulladulla,-35.35,150.4667,53.65,62,0,4.88,1659702710
Sampit,-2.5333,112.95,73.99,93,100,1.92,1659702710
Mahalapye,-23.1041,26.8142,82.58,17,0,4.29,1659702710
Mawlaik,23.6333,94.4167,79.11,93,100,0.45,1659702711
San Patricio,28.017,-97.5169,84.06,82,100,7.16,1659702711
Imbituba,-28.24,-48.6703,66.09,71,44,23.0,1659702654
Gainesville,29.6516,-82.3248,78.08,81,0,0.0,1659702653
Ancud,-41.8697,-73.8203,39.16,90,100,7.49,1659702711
Mazagão,-0.115,-51.2894,84.25,73,32,5.06,1659702712
Vardø,70.3705,31.1107,55.38,94,75,6.91,1659702712
Touros,-5.1989,-35.4608,82.17,63,32,15.41,1659702713
Nha Trang,12.25,109.1833,77.0,84,100,1.36,1659702488
Bluff,-46.6,168.3333,51.08,87,100,9.93,1659702713
Lokosovo,61.1333,74.8167,75.67,53,41,2.21,1659702713
Bambous Virieux,-20.3428,57.7575,75.45,60,40,16.11,1659702714
Yulara,-25.2406,130.9889,52.77,30,0,10.22,1659702714
Sarab,38.6066,44.9883,98.83,18,0,4.45,1659702715
Tigil',57.8,158.6667,49.12,91,47,3.69,1659702715
Bethel,41.3712,-73.414,78.37,85,0,0.0,1659702469
Paamiut,61.994,-49.6678,45.97,89,100,17.76,1659702715
Waingapu,-9.6567,120.2641,73.72,75,93,4.72,1659702716
Grand Gaube,-20.0064,57.6608,75.6,59,0,8.99,1659702716
Husavik,66.0449,-17.3389,54.64,59,3,5.17,1659702550
Lüderitz,-26.6481,15.1594,67.73,54,90,11.25,1659702717
Mazatlán,23.2167,-106.4167,78.76,94,20,5.75,1659701930
Karpathos,35.507,27.2132,82.36,65,20,26.46,1659702722
Mildura,-34.2,142.15,46.08,87,2,15.37,1659702695
Emba,48.8264,58.1442,84.45,24,95,15.28,1659702723
Iberia,29.9502,-91.7507,75.96,94,75,5.75,1659702723
Saldanha,-33.0117,17.9442,59.32,79,6,7.18,1659702723
Tanabe,33.7333,135.3667,78.24,88,2,3.38,1659702724
Puerto Madero,14.7208,-92.4215,73.6,100,40,0.0,1659702724
Nelson Bay,-32.7167,152.15,61.09,78,0,13.0,1659702724
Comodoro Rivadavia,-45.8667,-67.5,42.66,65,75,17.27,1659702541
Antofagasta,-23.65,-70.4,56.48,73,46,4.34,1659702725
Norman Wells,65.282,-126.8329,57.24,72,40,8.05,1659702725
Norman,35.2226,-97.4395,80.6,80,40,4.61,1659702725
Mgandu,-5.95,34.1333,79.05,30,53,8.81,1659702726
Acapulco de Juárez,16.8634,-99.8901,76.82,83,20,9.22,1659702726
Ürümqi,43.801,87.6005,85.15,33,0,8.95,1659702464
Itoman,26.1247,127.6694,84.97,84,20,4.61,1659702726
Morón,-34.6534,-58.6198,47.97,81,0,4.09,1659702727
Hirado,33.3597,129.5531,84.38,88,9,11.45,1659702727
Yantzaza,-3.8278,-78.7594,68.77,94,69,0.56,1659702727
Røros,62.5747,11.3842,58.84,44,40,5.75,1659702728
Pisco,-13.7,-76.2167,60.85,82,100,3.44,1659702728
Laas,46.6166,10.7002,85.69,59,16,2.15,1659702729
Keroka,-0.7758,34.9453,64.08,72,100,1.19,1659702729
Vuktyl,63.8567,57.3094,78.22,43,90,9.62,1659702729
Castro,-24.7911,-50.0119,60.19,93,89,8.16,1659702512
Turukhansk,65.8167,87.9833,70.02,52,100,3.8,1659702730
Ust'-Omchug,61.15,149.6333,57.99,86,100,5.99,1659702730
La Ronge,55.1001,-105.2842,53.85,87,100,10.36,1659702730
Ribeira Grande,38.5167,-28.7,77.4,88,20,4.61,1659702731
Buin,-33.7333,-70.75,46.74,67,0,2.06,1659702731
Bakel,14.905,-12.4568,90.25,52,100,10.33,1659702731
Haines Junction,60.7522,-137.5108,48.15,87,90,3.44,1659702527
Sanchursk,56.9413,47.2499,74.43,67,100,4.23,1659702732
Vila,42.0304,-8.1588,80.71,49,47,2.15,1659702732
Henties Bay,-22.116,14.2845,63.99,66,5,10.51,1659702733
Oktyabr'skiy,54.4815,53.471,79.59,42,0,7.07,1659702733
Dingle,10.9995,122.6711,75.69,91,100,6.4,1659702733
Boddam,57.4667,-1.7833,60.49,60,62,13.0,1659702734
Mogadishu,2.0371,45.3438,82.27,69,20,18.41,1659702696
Darhan,49.4867,105.9228,63.39,84,100,5.73,1659702734
Camabatela,-8.1881,15.375,90.12,16,20,7.25,1659702734
Yatou,37.15,122.3833,81.1,92,8,7.11,1659702735
Shirokiy,49.758,129.523,67.48,95,100,12.84,1659702735
Kinsale,51.7075,-8.5306,66.24,51,75,13.8,1659702735
Coahuayana Viejo,18.7333,-103.6833,75.42,93,50,3.44,1659702736
Zhezkazgan,47.8043,67.7144,84.18,24,40,22.37,1659702736
Waddān,29.1614,16.139,98.02,20,0,7.11,1659702736
Nome,64.5011,-165.4064,50.07,93,100,4.61,1659702530
Chui,-33.6971,-53.4616,48.69,80,2,8.95,1659702737
Batagay-Alyta,67.8006,130.4114,52.92,61,100,1.74,1659702742
Adrar,20.5022,-10.0711,100.09,22,18,3.91,1659702743
Krasnaya Polyana,56.242,51.1442,76.91,55,83,2.17,1659702743
Bentiu,9.2333,29.8333,88.09,54,71,6.04,1659702612
Quesnel,52.9999,-122.5029,52.3,93,100,2.3,1659702542
Ostrovnoy,68.0531,39.5131,65.75,76,100,3.0,1659702744
La Providencia,28.7167,-111.5833,85.87,64,38,1.86,1659702744
Ilulissat,69.2167,-51.1,46.42,76,75,6.91,1659702592
Jiuquan,39.7432,98.5174,87.66,22,100,9.22,1659702745
Laguna,38.421,-121.4238,70.09,75,0,11.5,1659702450
Klaksvík,62.2266,-6.589,52.72,77,32,21.85,1659702745
Khovd,48.0056,91.6419,66.99,48,10,11.81,1659702746
Gravelbourg,49.8834,-106.5512,50.27,60,0,11.7,1659702746
Labuhan,-6.8844,112.2051,79.14,74,91,4.63,1659702746
São Filipe,14.8961,-24.4956,77.34,82,99,8.61,1659702747
Aklavik,68.2191,-135.0107,57.81,61,6,11.63,1659702747
Hammerfest,70.6634,23.6821,50.45,87,75,17.27,1659702747
Azuaga,38.2667,-5.6833,92.97,24,0,9.75,1659702748
Green River,41.5286,-109.4662,68.4,41,100,1.92,1659702748
Kavaratti,10.5669,72.642,79.48,83,100,25.37,1659702748
Cervo,43.6702,-7.4101,64.96,83,100,19.53,1659702749
Pangnirtung,66.1451,-65.7125,41.0,87,100,6.91,1659702749
Bud,39.447,-86.1758,73.42,98,0,4.32,1659702749
Pandan,14.0453,124.1694,78.91,87,100,7.78,1659702750
Tabuk,17.4189,121.4443,75.09,91,100,4.47,1659702750
Mandalgovi,45.7625,106.2708,79.27,28,9,4.23,1659702750
Salalah,17.0151,54.0924,80.69,89,75,12.66,1659702751
Maltahöhe,-24.8333,16.9833,77.34,5,4,10.09,1659702751
Östersund,63.1792,14.6357,64.62,58,75,3.44,1659702661
Alofi,-19.0595,-169.9187,73.29,94,100,9.22,1659702752
Vila Franca do Campo,37.7167,-25.4333,77.41,72,27,8.14,1659702752
Shizukuishi,39.6833,140.9833,64.06,97,100,2.48,1659702752
La Reforma,18.1,-91.0167,73.29,94,30,7.87,1659702753
Edgewater,28.9889,-80.9023,82.99,100,20,3.44,1659702753
Garissa,-0.4536,39.6401,83.84,41,89,21.36,1659702753
Naze,28.3667,129.4833,79.72,81,96,3.56,1659702467
Umluj,25.0213,37.2685,91.63,55,0,8.08,1659702754
Sitka,57.0531,-135.33,57.09,88,100,4.61,1659702754
Nushki,29.5542,66.0215,99.18,17,1,11.63,1659702754
Sola,-13.8833,167.55,79.47,94,14,3.44,1659702755
Wenatchee,47.4235,-120.3103,59.29,60,0,10.36,1659702484
Narsaq,60.9167,-46.05,50.22,93,100,2.66,1659702700
Port Elizabeth,-33.918,25.5701,68.31,67,0,11.5,1659702476
Necochea,-38.5473,-58.7368,45.57,65,8,9.22,1659702604
Naica,27.85,-105.4833,72.5,62,100,1.21,1659702755
Cravo Norte,6.3017,-70.2041,76.77,87,100,6.73,1659702756
Jiaozhou,36.2839,120.0033,87.76,85,2,6.73,1659702756
Istok,42.7808,20.4875,91.78,22,0,5.66,1659702756
Seoul,37.5683,126.9778,83.8,81,40,4.61,1659702757
Tiarei,-17.5333,-149.3333,71.62,79,67,27.69,1659702757
Viedma,-40.8135,-62.9967,45.59,56,13,11.92,1659702762
Sept-Îles,50.2001,-66.3821,69.06,54,20,10.36,1659702702
Shepsi,44.0361,39.1489,79.68,69,7,7.63,1659702737
Benghazi,32.1167,20.0667,84.27,62,0,13.31,1659702763
Businga,3.3333,20.8833,86.67,57,99,4.61,1659702763
Sobolevo,54.4299,31.8996,81.05,56,12,7.67,1659702650
Jumla,29.2747,82.1838,68.97,87,94,3.11,1659702497
Havelock,34.8791,-76.9013,87.75,88,38,4.68,1659702681
Acaraú,-2.8856,-40.12,84.02,57,2,16.8,1659702764
Surgut,61.25,73.4167,73.58,56,40,4.47,1659702730
Saskylakh,71.9167,114.0833,60.1,68,64,5.53,1659702466
Marquette,46.5333,-87.6335,64.78,85,6,8.52,1659702764
Judaberg,59.1659,5.8732,61.14,67,100,16.51,1659702765
Kathmandu,27.7167,85.3167,79.02,78,75,5.75,1659702489
Kharp,66.8014,65.8081,63.79,69,100,6.53,1659702765
Coquimbo,-29.9533,-71.3436,46.13,76,40,4.61,1659702766
Lavrentiya,65.5833,-171.0,42.69,93,100,10.63,1659702766
Khudumelapye,-23.8833,24.75,79.47,11,0,7.43,1659702766
Dunda,-8.1167,34.25,84.22,23,30,9.08,1659702767
Saint-Pierre,-21.3393,55.4781,76.68,66,0,8.05,1659702767
Eenhana,-17.4667,16.3333,89.82,16,0,7.7,1659702767
Pacasmayo,-7.4006,-79.5714,62.17,84,95,8.28,1659702767
Excelsior Springs,39.3392,-94.2261,75.9,83,0,5.08,1659702768
Coyhaique,-45.5752,-72.0662,28.35,93,40,5.75,1659702625
Voi,-3.3945,38.563,77.09,44,91,15.1,1659702768
Chimbote,-9.0853,-78.5783,61.48,85,100,6.31,1659702768
Palmer,42.1584,-72.3287,79.14,78,75,0.0,1659702726
Langxiang,46.95,128.8833,67.24,94,0,4.88,1659702769
Ulaangom,49.9811,92.0667,65.89,50,100,6.38,1659702769
Cherskiy,68.75,161.3,48.11,72,100,9.71,1659702770
Nanortalik,60.1432,-45.2371,45.55,88,100,2.28,1659702677
Ichnya,50.8626,32.3942,81.77,53,19,14.27,1659702770
Halifax,44.6453,-63.5724,67.89,99,100,6.91,1659702591
Buraidah,26.326,43.975,115.25,9,6,11.59,1659702727
Carroll,39.5501,-77.0164,73.02,84,100,1.01,1659702770
Anadyr,64.75,177.4833,43.3,93,0,6.71,1659702771
Vestmanna,62.1564,-7.1664,50.92,82,75,13.8,1659702771
Strășeni,47.1414,28.6103,82.33,44,100,10.0,1659702772
Mount Isa,-20.7333,139.5,78.57,38,40,11.5,1659702661
Sawtell,-30.3833,153.1,62.62,67,100,6.91,1659702772
Caracolí,6.4119,-74.7606,72.23,94,86,0.34,1659702772
Clyde River,70.4692,-68.5914,46.63,71,100,10.36,1659702773
Araouane,18.9048,-3.5265,102.04,22,100,11.68,1659702773
Caravelas,-17.7125,-39.2481,75.0,71,91,5.35,1659702554
Imeni Poliny Osipenko,52.4201,136.4853,64.42,92,100,4.65,1659702773
Ciudad del Carmen,18.6333,-91.8333,78.84,83,20,11.5,1659702774
Juneau,58.3019,-134.4197,58.84,94,100,0.0,1659702622
Tucumã,-0.1833,-50.05,82.06,81,49,8.3,1659702774
Ramsar,36.9226,50.6426,89.04,62,20,6.91,1659702774
Kaeo,-35.1,173.7833,45.32,92,8,1.45,1659702775
Capela,-10.5033,-37.0528,77.34,69,26,8.23,1659702780
Tarancón,40.0085,-3.0073,94.21,14,0,8.19,1659702780
Erenhot,43.6475,111.9767,84.33,32,93,8.16,1659702781
Awjilah,29.1081,21.2869,97.99,17,0,13.71,1659702781
Rørvik,64.8621,11.2373,57.31,58,40,20.71,1659702785
Vanimo,-2.6741,141.3028,77.36,88,86,2.75,1659702785
Faanui,-16.4833,-151.75,77.2,78,86,23.67,1659702634
Avera,33.194,-82.5271,79.56,83,91,4.25,1659702786
Constitución,-35.3333,-72.4167,51.57,74,100,3.71,1659702786
Lompoc,34.6391,-120.4579,59.59,90,100,11.99,1659702786
Porto Santo,33.072,-16.3415,75.58,69,75,11.5,1659702511
Pīpār,26.3856,73.5378,88.57,61,97,2.71,1659702601
Ula,22.7225,88.5556,85.98,79,40,8.05,1659702787
Tabou,4.423,-7.3528,76.77,73,100,7.4,1659702787
Corinth,37.9407,22.9573,89.89,29,0,16.69,1659702788
Aswān,24.0934,32.907,108.7,13,0,8.05,1659702788
Sena Madureira,-9.0656,-68.6569,74.17,95,100,2.44,1659702788
Dābhol,17.6,73.1667,78.69,86,100,9.86,1659702789
Limbang,4.75,115.0,78.91,96,100,5.14,1659702789
Manokwari,-0.8667,134.0833,79.02,79,100,0.87,1659702789
Sukhoy Log,56.9094,62.0296,79.95,43,42,3.85,1659702733
Teguise,29.0605,-13.564,75.42,69,20,19.57,1659702790
Zephyrhills,28.2336,-82.1812,81.82,93,0,4.61,1659702790
Olinda,-8.0089,-34.8553,80.33,65,75,9.22,1659702790
São Gabriel da Cachoeira,-0.1303,-67.0892,75.0,94,40,1.14,1659702791
Chapais,49.7834,-74.8492,55.18,53,8,3.22,1659702791
Rāmānuj Ganj,23.8,83.7,84.9,66,100,3.83,1659702791
Antsohihy,-14.8796,47.9875,87.19,23,6,3.76,1659702792
Bensonville,6.4461,-10.6125,77.56,76,100,6.46,1659702792
Codrington,-38.2667,141.9667,43.95,95,2,8.21,1659702792
Barrow,71.2906,-156.7887,45.79,85,85,3.53,1659702793
Shitanjing,39.2342,106.3439,86.07,45,14,7.07,1659702793
Charagua,-19.8,-63.2167,60.37,45,85,6.49,1659702793
Samarai,-10.6167,150.6667,79.47,88,77,11.23,1659702794
Warmbad,-28.45,18.7333,74.93,22,100,3.44,1659702794
Magdagachi,53.45,125.8,65.32,99,100,7.78,1659702794
Oskarshamn,57.2645,16.4484,71.98,84,94,3.62,1659702560
Lorengau,-2.0226,147.2712,80.65,78,100,4.0,1659702795
Jinxiang,27.4327,120.6062,81.57,85,1,12.03,1659702795
Ambatofinandrahana,-20.55,46.8,70.29,33,20,3.56,1659702795
Hofn,64.2539,-15.2082,57.22,62,0,9.22,1659702796
Goderich,43.7501,-81.7165,69.91,83,0,3.44,1659702621
Guozhen,34.3659,107.359,85.3,68,2,3.31,1659702796
Japura,-0.3167,102.35,74.95,89,100,1.92,1659702797
Lagunillas,10.1301,-71.2595,81.81,76,26,9.04,1659702797
Hasaki,35.7333,140.8333,72.28,74,100,12.37,1659702797
Luanda,-8.8368,13.2343,71.46,72,71,15.46,1659702731
Calatayud,41.3535,-1.6432,91.0,32,0,10.38,1659702798
Aykhal,66.0,111.5,48.42,76,100,8.43,1659702797
Thap Than,15.4606,99.8917,75.97,90,100,4.16,1659702798
Yangi Marg`ilon,40.4272,71.7189,94.89,17,37,15.75,1659702803
Buta,2.7858,24.73,93.58,37,49,3.56,1659702804
Porangatu,-13.4408,-49.1486,84.13,27,6,3.58,1659702553
Mossamedes,-15.1961,12.1522,69.85,67,16,11.32,1659702804
Elko,41.0002,-115.5012,67.64,52,100,3.0,1659702804
Cancún,21.1743,-86.8466,78.73,100,20,0.0,1659702612
Margate,51.3813,1.3862,72.9,43,1,1.99,1659702618
Atambua,-9.1061,124.8925,71.28,89,100,3.4,1659702805
Kot Radha Kishan,31.1725,74.0997,78.91,69,100,9.91,1659702805
Chara,56.9064,118.2631,49.93,89,44,1.52,1659702806
Karratha,-20.7377,116.8463,67.78,48,0,9.57,1659702806
Takaka,-40.85,172.8,57.56,92,100,9.01,1659702806
Christchurch,-43.5333,172.6333,66.4,43,100,19.57,1659702751
Praia,14.9215,-23.5087,84.74,61,20,16.11,1659702807
Farmington,36.7281,-108.2187,65.08,94,0,4.61,1659702791
Novoagansk,61.9449,76.6625,74.01,51,75,12.03,1659702807
Palu,-0.8917,119.8707,76.1,97,76,0.94,1659702807
Owando,-0.4819,15.8999,92.8,34,100,3.42,1659702808
Kala Nera,39.3063,23.12,91.96,49,0,8.03,1659702808
Cockburn Town,21.4612,-71.1419,81.93,76,100,21.5,1659702645
Vila do Maio,15.1333,-23.2167,84.99,81,40,8.12,1659702808
Sioux Lookout,50.1001,-91.917,64.47,77,75,11.5,1659702809
Betsiamites,48.9413,-68.646,64.49,57,0,7.76,1659702809
Beloha,-25.1667,45.05,77.88,41,0,13.87,1659702809
Bonthe,7.5264,-12.505,80.02,78,98,13.49,1659702810
Bubaque,11.2833,-15.8333,77.54,88,100,11.59,1659702810
Rafai,4.95,23.9167,83.89,61,100,1.54,1659702810
Ocós,14.5094,-92.1933,73.58,82,100,4.63,1659702811
Sibolga,1.7427,98.7792,78.4,70,100,2.93,1659702811
Asău,46.4333,26.4,79.72,46,90,3.74,1659702811
Inhambane,-23.865,35.3833,80.58,65,20,11.5,1659702812
Nyrob,60.733,56.7202,77.4,47,98,4.5,1659702812
Hluk,48.9881,17.5267,95.74,27,0,5.99,1659702812
Maniitsoq,65.4167,-52.9,43.02,95,100,31.12,1659702813
Dongsheng,39.8161,109.9776,82.08,33,3,6.46,1659702813
Guerrero Negro,27.9769,-114.0611,68.81,91,1,9.78,1659702813
Maba,24.6841,113.5984,76.59,95,99,3.04,1659702813
Iona,26.5204,-81.964,82.98,87,0,4.61,1659702814
Jiayuguan City,39.8167,98.3,85.14,24,100,8.61,1659702814
Den Helder,52.9599,4.7593,69.96,66,75,21.0,1659702814
Kudahuvadhoo,2.6708,72.8944,82.18,76,100,15.57,1659702815
Pitkyaranta,61.5734,31.4792,71.28,57,1,10.65,1659702815
Cabo San Lucas,22.8909,-109.9124,84.51,64,0,10.36,1659702815
Kachug,53.9606,105.8817,53.46,72,12,5.1,1659702816
Grindavik,63.8424,-22.4338,55.35,93,100,17.27,1659702816
İslahiye,37.025,36.6306,101.75,23,0,8.95,1659702816
Khasan,42.4308,130.6434,73.42,97,100,2.42,1659702604
Béboto,8.2668,16.939,78.15,87,99,4.03,1659702817
Grand Baie,-20.0182,57.5802,75.67,59,1,8.99,1659702817
Novy Urengoy,66.0833,76.6333,69.48,48,24,12.21,1659702817
Nsanje,-16.92,35.262,89.69,22,0,5.3,1659702823
Kitob,39.0843,66.8332,92.43,15,2,10.0,1659702823
Makkah al Mukarramah,21.4267,39.8261,100.87,30,86,17.96,1659702754
Meulaboh,4.1363,96.1285,79.2,79,95,1.83,1659702715
Olden,61.8364,6.8064,58.12,56,58,5.61,1659702824
Kirakira,-10.4544,161.9205,79.25,84,64,8.7,1659702824
Yinchuan,38.4681,106.2731,91.8,36,38,6.26,1659702789
Zhalantun,48.0,122.7167,68.59,60,3,5.35,1659702824
Koumac,-20.5667,164.2833,72.88,87,9,0.87,1659702825
Alice Springs,-23.7,133.8833,49.55,46,0,0.0,1659702670
Inverness,57.4791,-4.224,63.79,56,40,10.36,1659702825
Kisangani,0.5167,25.2,84.11,59,100,1.61,1659702826
Brae,60.3964,-1.353,54.27,70,100,18.25,1659702629
Nurota,40.5614,65.6886,91.38,17,1,12.62,1659702826
Dengzhou,37.8086,120.7508,82.78,85,29,5.39,1659702826
Norwich,52.6278,1.2983,73.22,42,20,14.97,1659702788
Kununurra,-15.7667,128.7333,76.98,61,15,5.75,1659702827
The Valley,18.217,-63.0578,84.09,74,20,16.11,1659702590
Lagdo,9.05,13.7333,72.5,95,100,5.41,1659702827
Longyearbyen,78.2186,15.6401,48.04,93,75,3.44,1659702827
Cidreira,-30.1811,-50.2056,55.42,88,100,16.71,1659702828
El Tigre,8.8875,-64.2454,76.12,77,89,10.31,1659702828
Forsytheganj,52.6333,29.7333,84.29,46,4,10.31,1659702828
Almaty,43.25,76.95,85.91,27,100,4.47,1659702829
Cap Malheureux,-19.9842,57.6142,74.46,59,0,8.99,1659702653
Pathein,16.7833,94.7333,77.68,92,100,7.92,1659702829
Morant Bay,17.8815,-76.4093,82.02,71,23,9.86,1659702830
Ta Khmau,11.4833,104.95,87.85,62,75,8.05,1659702830
Port Moresby,-9.4431,147.1797,80.02,83,20,11.5,1659702661
Leh,34.1667,77.5833,71.78,36,80,8.97,1659702830
At-Bashi,41.1702,75.8106,67.48,45,100,4.18,1659702831
Namatanai,-3.6667,152.4333,79.3,78,100,7.45,1659702831
Katsuura,35.1333,140.3,73.04,80,78,10.92,1659702831
Kaili,-3.4626,120.2147,66.74,92,17,2.62,1659702832
Port Lincoln,-34.7333,135.8667,54.05,71,95,16.13,1659702622
Taoudenni,22.6783,-3.9836,115.23,8,0,16.31,1659702832
Newala,-10.9431,39.2787,80.29,32,56,14.99,1659702832
Amga,60.8953,131.9608,71.08,62,100,11.97,1659702833
San Ramon,37.7799,-121.978,62.62,86,0,8.05,1659702833
Moose Factory,51.2585,-80.6094,59.0,82,20,9.22,1659702833
Pangai,-19.8,-174.35,78.91,89,100,10.36,1659702834
Rio Grande,-32.035,-52.0986,50.11,84,100,13.82,1659702834
Indiaroba,-11.5192,-37.5117,80.42,58,30,6.96,1659702834
Rundu,-17.9333,19.7667,87.21,16,0,7.72,1659702835
Minudasht,37.2289,55.3747,99.97,28,20,11.5,1659702835
Korsholm,63.1142,21.6822,65.23,94,100,8.05,1659702535
Waynesville,35.4887,-82.9887,70.84,91,26,1.99,1659702835
Bereket,39.2446,55.5154,101.5,20,0,5.46,1659702836
Charter Township of Clinton,42.587,-82.9199,73.42,95,100,4.61,1659702036
Härnösand,62.6323,17.9379,68.02,70,100,6.6,1659702748
Hualmay,-11.0964,-77.6139,61.05,83,100,7.67,1659702841
Tahoua,14.8888,5.2692,85.98,54,75,12.66,1659702841
Breves,-1.6822,-50.4803,85.35,60,5,5.97,1659702842
Gushikawa,26.3544,127.8686,84.2,87,20,4.61,1659702842
Sarāhan,31.5167,77.8,66.92,89,89,0.54,1659702842
Garoowe,8.4054,48.4845,92.86,26,8,23.47,1659702843
Tamandaré,-8.7597,-35.1047,78.89,69,74,11.97,1659702843
Atar,20.5169,-13.0499,96.26,28,4,8.97,1659702843
Ponta do Sol,32.6667,-17.1,80.71,71,1,3.62,1659702654
Faya,18.3851,42.4509,75.31,62,100,3.85,1659702844
Najrān,17.4924,44.1277,88.45,35,100,11.41,1659702844
Besskorbnaya,44.6447,41.311,86.74,38,100,3.49,1659702845
Coro,11.4045,-69.6734,81.72,73,52,13.44,1659702845
Shimoda,34.6667,138.95,74.1,84,85,8.72,1659702845
Canyon Lake,29.8752,-98.2625,78.42,89,81,5.99,1659702846
Brigantine,39.4101,-74.3646,76.03,94,20,3.44,1659702846
Āreka,7.0667,37.7,70.12,67,89,5.53,1659702846
Ulagan,50.6321,87.9563,58.19,77,95,1.7,1659702847
Arlit,18.7369,7.3853,99.37,26,0,3.44,1659702847
Fallon,39.4735,-118.7774,72.91,64,75,3.44,1659702847
Colesberg,-30.72,25.0972,63.3,31,24,12.37,1659702848
Tuatapere,-46.1333,167.6833,49.64,91,100,3.98,1659702848
Rawson,-43.3002,-65.1023,40.05,64,9,17.25,1659702749
Riyadh,24.6877,46.7219,109.54,12,58,15.3,1659702558
Fairbanks,64.8378,-147.7164,57.31,92,75,8.05,1659702849
Riberalta,-10.9833,-66.1,75.4,94,75,0.0,1659702849
Yumen,40.2833,97.2,83.73,28,100,17.29,1659702716
Dzaoudzi,-12.7887,45.2699,80.49,65,100,4.61,1659702849
Ouadda,8.0777,22.4007,79.66,76,83,2.24,1659702850
Torbay,47.6666,-52.7314,77.88,69,40,18.41,1659702850
Vao,-22.6667,167.4833,71.35,77,100,9.19,1659702850
Guanambi,-14.2233,-42.7814,81.93,36,5,7.7,1659702851
Mumford,5.2618,-0.759,76.48,69,6,11.36,1659702851
Port Augusta,-32.5,137.7667,49.75,79,5,11.23,1659702851
Jinchang,38.4953,102.1739,87.67,40,5,6.93,1659702852
Richards Bay,-28.783,32.0377,72.93,66,4,7.18,1659702852
Port Blair,11.6667,92.75,82.0,83,100,20.29,1659702852
Wewak,-3.5534,143.6268,79.18,84,100,4.61,1659702852
Broome,42.2506,-75.833,72.86,95,0,4.61,1659702853
Ayan,56.45,138.1667,55.33,99,100,13.87,1659702733
Mount Gambier,-37.8333,140.7667,42.73,99,34,4.85,1659702853
Kavieng,-2.5744,150.7967,81.3,78,100,9.44,1659702854
Leningradskiy,69.3833,178.4167,39.88,90,98,15.86,1659702556
Yulin,22.6333,110.15,76.41,92,94,9.24,1659702854
Mahabalipuram,12.6264,80.1722,87.85,74,100,14.18,1659702855
Phalombe,-15.8064,35.6507,79.16,30,27,4.05,1659702855
Hirara,24.8,125.2833,85.19,72,4,9.31,1659702855
Maputo,-25.9653,32.5892,76.68,65,20,9.22,1659702856
Egvekinot,66.3167,-179.1667,34.93,87,22,7.81,1659702856
Whitehorse,60.7161,-135.0538,54.37,77,40,15.01,1659702624
Ajdabiya,30.7554,20.2263,89.38,38,0,16.49,1659702632
San Andrés,12.5847,-81.7006,80.62,83,75,10.36,1659702856
Mountain Home,43.133,-115.6912,71.08,33,75,10.36,1659702861
Verkhnevilyuysk,63.4453,120.3167,51.42,99,100,6.67,1659702862
Manga,11.6636,-1.0731,83.86,62,100,9.31,1659702862
Pundaguitan,6.3711,126.1689,82.4,72,100,6.64,1659702862
Ixtapa,20.7,-105.2,78.03,94,75,4.61,1659702863
Khorixas,-20.3667,14.9667,88.0,12,0,5.53,1659702863
Sørland,67.667,12.6934,53.46,77,71,27.54,1659702787
Coaticook,45.1334,-71.7991,71.37,95,100,0.92,1659702864
Ziro,27.6333,93.8333,61.54,97,46,2.13,1659702864
Graham,47.0529,-122.2943,55.17,91,0,1.01,1659702864
Puerto Nariño,-3.7703,-70.3831,74.14,97,100,1.86,1659702865
Angoche,-16.2325,39.9086,77.85,63,2,10.33,1659702865
Lagoa,39.05,-27.9833,74.5,81,1,7.34,1659702572
Petropavlovsk-Kamchatskiy,53.0452,158.6483,55.99,88,0,4.47,1659702615
Ngunguru,-35.6167,174.5,50.86,79,1,2.44,1659702866
Pergamino,-33.89,-60.5736,52.36,40,0,1.81,1659702830
Sarkand,45.41,79.9186,81.63,35,67,6.15,1659702866
San Carlos del Zulia,9.0,-71.9135,77.34,90,100,4.5,1659702867
Chernyakhovsk,54.6335,21.8156,83.98,44,75,11.18,1659702867
Hulín,49.3169,17.4637,95.54,34,5,7.63,1659702867
Pemangkat,1.1667,108.9667,76.82,86,100,4.99,1659702868
Solnechnyy,50.7214,136.6319,65.71,94,100,0.98,1659702819
Requena,39.4883,-1.1004,86.79,21,0,9.06,1659702868
Alindao,5.0267,21.2088,81.28,83,53,4.54,1659702869
Edd,13.9297,41.6925,91.81,61,52,9.69,1659702869
Pitimbu,-7.4706,-34.8086,79.39,69,52,15.03,1659702869
Xining,36.6167,101.7667,69.44,73,16,4.27,1659702668
Kingman,35.1894,-114.053,72.88,79,20,3.44,1659702821
Shima,24.4478,117.8111,84.22,89,68,1.99,1659702870
Khor,47.8861,134.9464,71.11,96,100,16.51,1659702870
Río Cuarto,-33.1307,-64.3499,52.66,76,0,9.22,1659702870
Xihe,31.6864,113.4659,85.48,73,2,6.53,1659702871
Kahului,20.8947,-156.47,76.84,69,0,5.01,1659702871
College,64.8569,-147.8028,57.29,92,100,8.05,1659702871
Kabinda,-6.1333,24.4833,96.46,14,23,2.21,1659702872
Gamba,-2.65,10.0,75.4,71,50,10.69,1659702740
Hamilton,39.1834,-84.5333,75.06,95,40,6.91,1659702787
Orekhovo,45.1294,33.6318,83.25,50,2,11.01,1659702872
Sai Buri,6.7013,101.6168,80.65,72,100,2.1,1659702872
Mount Hagen,-5.8581,144.2274,59.16,99,81,1.79,1659702873
Vryburg,-26.9566,24.7284,68.63,23,24,2.68,1659702873
Banikoara,11.2985,2.4386,84.9,60,86,5.97,1659702873
Baraboo,43.4711,-89.7443,62.96,94,0,0.0,1659702594
Williamsport,41.2412,-77.0011,75.18,93,20,5.75,1659702662
Banda Aceh,5.5577,95.3222,80.53,78,52,14.29,1659702874
Boyolangu,-8.1181,111.8935,72.5,92,69,3.0,1659702874
Kaoma,-14.7833,24.8,85.98,19,0,9.22,1659702875
Dauphin,51.1494,-100.0502,68.14,77,0,10.36,1659702875
Hervey Bay,-25.2986,152.8535,67.01,92,2,4.0,1659702880
Yenagoa,4.9247,6.2642,85.44,56,95,5.75,1659702880
Rosetta,31.4044,30.4164,82.04,69,0,14.07,1659702881
Karakol,42.4907,78.3936,71.11,46,100,3.74,1659702881
Dubrovnik,42.6481,18.0922,91.04,33,0,8.05,1659702881
San Cristobal,7.7669,-72.225,71.78,73,100,4.0,1659702882
Srednekolymsk,67.45,153.6833,47.8,63,30,4.18,1659702882
Kaseda-shirakame,31.4167,130.3167,82.51,85,100,6.73,1659702882
Yeppoon,-23.1333,150.7333,64.18,92,0,6.93,1659702883
Kermanshah,34.3142,47.065,104.9,4,0,9.22,1659702883
Mayor Pablo Lagerenza,-19.9309,-60.7718,71.28,41,79,7.45,1659702883
Lata,40.1629,-8.3327,94.41,21,0,6.64,1659702884
Pilar,-9.5972,-35.9567,78.73,84,80,8.61,1659702884
